{
  "last_updated": "2026-06-01T19:47:42.637Z",
  "location": {
    "lat": 45.8202433,
    "lon": 15.8835749
  },
  "non_working_days": [
    {
      "date": "2026-06-04",
      "type": "holiday",
      "label": "Tijelovo"
    },
    {
      "date": "2026-06-07",
      "type": "sunday",
      "label": "Nedjelja"
    }
  ],
  "stores": [
    {
      "name": "Studenac",
      "brand": "Studenac",
      "address": null,
      "city": "Zagreb",
      "lat": 45.8202492,
      "lon": 15.8841972,
      "dist": 48,
      "hours": [
        {
          "date": "2026-06-04",
          "open": true,
          "time": "07:00-14:00"
        },
        {
          "date": "2026-06-07",
          "open": true,
          "time": "07:00-21:00"
        }
      ]
    },
    {
      "name": "Studenac",
      "brand": null,
      "address": "Bolnička cesta 94",
      "city": "Zagreb",
      "lat": 45.8196548,
      "lon": 15.8812381,
      "dist": 193,
      "hours": [
        {
          "date": "2026-06-04",
          "open": true,
          "time": "07:00-14:00"
        },
        {
          "date": "2026-06-07",
          "open": true,
          "time": "07:00-21:00"
        }
      ]
    },
    {
      "name": "Konzum",
      "brand": "Konzum",
      "address": null,
      "city": "Zagreb",
      "lat": 45.8174222,
      "lon": 15.8861546,
      "dist": 372,
      "hours": [
        {
          "date": "2026-06-04",
          "open": false,
          "time": null
        },
        {
          "date": "2026-06-07",
          "open": true,
          "time": "08:00-20:00"
        }
      ]
    },
    {
      "name": "Boso",
      "brand": null,
      "address": "Karažnik 22",
      "city": "Zagreb",
      "lat": 45.8196909,
      "lon": 15.8782537,
      "dist": 417,
      "hours": [
        {
          "date": "2026-06-04",
          "open": false,
          "time": null
        },
        {
          "date": "2026-06-07",
          "open": true,
          "time": "08:00-20:00"
        }
      ]
    },
    {
      "name": "Müller",
      "brand": "Müller",
      "address": null,
      "city": "Zagreb",
      "lat": 45.8179454,
      "lon": 15.8883482,
      "dist": 450,
      "hours": [
        {
          "date": "2026-06-04",
          "open": false,
          "time": null
        },
        {
          "date": "2026-06-07",
          "open": true,
          "time": "09:00-20:00"
        }
      ]
    },
    {
      "name": "Studenac",
      "brand": "Studenac",
      "address": null,
      "city": "Zagreb",
      "lat": 45.8168818,
      "lon": 15.8897262,
      "dist": 606,
      "hours": [
        {
          "date": "2026-06-04",
          "open": true,
          "time": "07:00-14:00"
        },
        {
          "date": "2026-06-07",
          "open": true,
          "time": "07:00-21:00"
        }
      ]
    },
    {
      "name": "dm",
      "brand": "dm",
      "address": "Ulica Mahatme Gandhija 3",
      "city": "Zagreb",
      "lat": 45.8153134,
      "lon": 15.8768735,
      "dist": 755,
      "hours": [
        {
          "date": "2026-06-04",
          "open": false,
          "time": null
        },
        {
          "date": "2026-06-07",
          "open": true,
          "time": "09:00-20:00"
        }
      ]
    }
  ]
}