{
  "last_updated": "2026-06-26T05:02:15.804Z",
  "location": {
    "lat": 45.8202433,
    "lon": 15.8835749
  },
  "non_working_days": [
    {
      "date": "2026-06-28",
      "type": "sunday",
      "label": "Nedjelja"
    }
  ],
  "stores": [
    {
      "name": "Studenac",
      "brand": "Studenac",
      "address": null,
      "city": "Zagreb",
      "lat": 45.8202492,
      "lon": 15.8841972,
      "dist": 48,
      "hours": [
        {
          "date": "2026-06-28",
          "open": true,
          "time": "08:00-21:00"
        }
      ]
    },
    {
      "name": "Studenac",
      "brand": null,
      "address": "Bolnička cesta 94",
      "city": "Zagreb",
      "lat": 45.8196548,
      "lon": 15.8812381,
      "dist": 193,
      "hours": [
        {
          "date": "2026-06-28",
          "open": false,
          "time": null
        }
      ]
    },
    {
      "name": "Konzum",
      "brand": "Konzum",
      "address": null,
      "city": "Zagreb",
      "lat": 45.8174222,
      "lon": 15.8861546,
      "dist": 372,
      "hours": [
        {
          "date": "2026-06-28",
          "open": true,
          "time": "08:00-20:00"
        }
      ]
    },
    {
      "name": "Kujtesa",
      "brand": null,
      "address": null,
      "city": "Zagreb",
      "lat": 45.8173454,
      "lon": 15.8866292,
      "dist": 400,
      "hours": []
    },
    {
      "name": "Fero-stil",
      "brand": null,
      "address": null,
      "city": "Zagreb",
      "lat": 45.8174191,
      "lon": 15.8868101,
      "dist": 402,
      "hours": []
    },
    {
      "name": "Boso",
      "brand": null,
      "address": "Karažnik 22",
      "city": "Zagreb",
      "lat": 45.8196909,
      "lon": 15.8782537,
      "dist": 417,
      "hours": [
        {
          "date": "2026-06-28",
          "open": true,
          "time": "08:00-20:00"
        }
      ]
    },
    {
      "name": "Müller",
      "brand": "Müller",
      "address": null,
      "city": "Zagreb",
      "lat": 45.8179454,
      "lon": 15.8883482,
      "dist": 450,
      "hours": [
        {
          "date": "2026-06-28",
          "open": true,
          "time": "09:00-20:00"
        }
      ]
    },
    {
      "name": "Mlinar",
      "brand": null,
      "address": null,
      "city": "Zagreb",
      "lat": 45.8170168,
      "lon": 15.8871557,
      "dist": 454,
      "hours": []
    },
    {
      "name": "Diona",
      "brand": null,
      "address": null,
      "city": "Zagreb",
      "lat": 45.816949,
      "lon": 15.8871552,
      "dist": 460,
      "hours": []
    },
    {
      "name": "Desetka",
      "brand": null,
      "address": null,
      "city": "Zagreb",
      "lat": 45.8177683,
      "lon": 15.8782305,
      "dist": 497,
      "hours": []
    },
    {
      "name": "Prehrana",
      "brand": null,
      "address": null,
      "city": "Zagreb",
      "lat": 45.8180569,
      "lon": 15.8895084,
      "dist": 520,
      "hours": []
    },
    {
      "name": "Perjavica",
      "brand": null,
      "address": null,
      "city": "Zagreb",
      "lat": 45.8174169,
      "lon": 15.8892455,
      "dist": 540,
      "hours": []
    },
    {
      "name": "To & To",
      "brand": null,
      "address": null,
      "city": "Zagreb",
      "lat": 45.8171946,
      "lon": 15.8896326,
      "dist": 579,
      "hours": []
    },
    {
      "name": "Studenac",
      "brand": "Studenac",
      "address": null,
      "city": "Zagreb",
      "lat": 45.8168818,
      "lon": 15.8897262,
      "dist": 606,
      "hours": [
        {
          "date": "2026-06-28",
          "open": false,
          "time": null
        }
      ]
    },
    {
      "name": "Servis bicikla Palko",
      "brand": null,
      "address": "Padine 10",
      "city": "Zagreb",
      "lat": 45.8176863,
      "lon": 15.8916795,
      "dist": 689,
      "hours": []
    },
    {
      "name": "Auto električarski servis Auto Đurđan",
      "brand": null,
      "address": "Bolnička cesta 83",
      "city": "Zagreb",
      "lat": 45.8165148,
      "lon": 15.8912606,
      "dist": 726,
      "hours": []
    },
    {
      "name": "Mesnica Marko",
      "brand": null,
      "address": null,
      "city": "Zagreb",
      "lat": 45.815257,
      "lon": 15.8772166,
      "dist": 742,
      "hours": []
    },
    {
      "name": "Frizerski salon Brinet",
      "brand": null,
      "address": null,
      "city": "Zagreb",
      "lat": 45.8151113,
      "lon": 15.8772114,
      "dist": 754,
      "hours": []
    },
    {
      "name": "dm",
      "brand": "dm",
      "address": "Ulica Mahatme Gandhija 3",
      "city": "Zagreb",
      "lat": 45.8153134,
      "lon": 15.8768735,
      "dist": 755,
      "hours": [
        {
          "date": "2026-06-28",
          "open": false,
          "time": null
        }
      ]
    },
    {
      "name": "iNovine",
      "brand": null,
      "address": null,
      "city": "Zagreb",
      "lat": 45.8150782,
      "lon": 15.8772138,
      "dist": 757,
      "hours": []
    },
    {
      "name": "Roto Dinamic",
      "brand": null,
      "address": "Ulica Mahatme Gandhija 1",
      "city": "Zagreb",
      "lat": 45.8151126,
      "lon": 15.8770831,
      "dist": 761,
      "hours": []
    },
    {
      "name": "Pekarna Rina",
      "brand": null,
      "address": null,
      "city": "Zagreb",
      "lat": 45.8149858,
      "lon": 15.8771926,
      "dist": 766,
      "hours": []
    },
    {
      "name": "Pekarnica Sezam",
      "brand": null,
      "address": null,
      "city": "Zagreb",
      "lat": 45.8156656,
      "lon": 15.8757496,
      "dist": 792,
      "hours": []
    },
    {
      "name": "Plus",
      "brand": null,
      "address": null,
      "city": "Zagreb",
      "lat": 45.8158207,
      "lon": 15.8755562,
      "dist": 792,
      "hours": []
    },
    {
      "name": "Mondo",
      "brand": null,
      "address": null,
      "city": "Zagreb",
      "lat": 45.815433,
      "lon": 15.8758173,
      "dist": 805,
      "hours": []
    },
    {
      "name": "iNovine",
      "brand": null,
      "address": null,
      "city": "Zagreb",
      "lat": 45.8146561,
      "lon": 15.8768033,
      "dist": 813,
      "hours": []
    },
    {
      "name": "Spar",
      "brand": "Spar",
      "address": "Argentinska ulica 4",
      "city": "Zagreb",
      "lat": 45.8147058,
      "lon": 15.8764361,
      "dist": 828,
      "hours": [
        {
          "date": "2026-06-28",
          "open": true,
          "time": "08:00-14:00"
        }
      ]
    },
    {
      "name": "Frizerski salon Tea",
      "brand": null,
      "address": "Ulica hrvatskih iseljenika 1",
      "city": "Zagreb",
      "lat": 45.8158322,
      "lon": 15.8749444,
      "dist": 829,
      "hours": []
    },
    {
      "name": "Prva sportska kladionica",
      "brand": null,
      "address": null,
      "city": "Zagreb",
      "lat": 45.8150939,
      "lon": 15.8756628,
      "dist": 839,
      "hours": []
    },
    {
      "name": "Spar",
      "brand": "Spar",
      "address": "Gospodska ulica 2",
      "city": "Zagreb",
      "lat": 45.8132439,
      "lon": 15.8876949,
      "dist": 841,
      "hours": [
        {
          "date": "2026-06-28",
          "open": true,
          "time": "07:00-20:00"
        }
      ]
    },
    {
      "name": "Super sport",
      "brand": null,
      "address": null,
      "city": "Zagreb",
      "lat": 45.8150943,
      "lon": 15.8755505,
      "dist": 845,
      "hours": []
    },
    {
      "name": "Optika Regul",
      "brand": null,
      "address": null,
      "city": "Zagreb",
      "lat": 45.8144186,
      "lon": 15.8765345,
      "dist": 847,
      "hours": []
    },
    {
      "name": "Feš Nobl",
      "brand": null,
      "address": null,
      "city": "Zagreb",
      "lat": 45.8143496,
      "lon": 15.8765356,
      "dist": 853,
      "hours": []
    },
    {
      "name": "Konzum",
      "brand": "Konzum",
      "address": "Samoborska cesta 102",
      "city": "Zagreb",
      "lat": 45.8125422,
      "lon": 15.8834909,
      "dist": 856,
      "hours": [
        {
          "date": "2026-06-28",
          "open": true,
          "time": "07:00-15:00"
        }
      ]
    },
    {
      "name": "Foto Studio Fokus",
      "brand": null,
      "address": "Argentinska ulica 2",
      "city": "Zagreb",
      "lat": 45.8142954,
      "lon": 15.8763914,
      "dist": 864,
      "hours": []
    },
    {
      "name": "Iverpan",
      "brand": null,
      "address": "Samoborska cesta 96",
      "city": "Zagreb",
      "lat": 45.8124389,
      "lon": 15.8857154,
      "dist": 884,
      "hours": []
    },
    {
      "name": "Konzum",
      "brand": "Konzum",
      "address": null,
      "city": "Zagreb",
      "lat": 45.8171078,
      "lon": 15.8730422,
      "dist": 888,
      "hours": [
        {
          "date": "2026-06-28",
          "open": true,
          "time": "08:00-20:00"
        }
      ]
    },
    {
      "name": "Vito",
      "brand": null,
      "address": null,
      "city": "Zagreb",
      "lat": 45.8173291,
      "lon": 15.8726755,
      "dist": 905,
      "hours": []
    },
    {
      "name": "#njupac",
      "brand": null,
      "address": null,
      "city": "Zagreb",
      "lat": 45.8172744,
      "lon": 15.8726805,
      "dist": 907,
      "hours": []
    },
    {
      "name": "Tisak",
      "brand": "Tisak",
      "address": "Gajnice 18",
      "city": "Zagreb",
      "lat": 45.8170595,
      "lon": 15.8726969,
      "dist": 914,
      "hours": []
    },
    {
      "name": "Dubravica",
      "brand": null,
      "address": null,
      "city": "Zagreb",
      "lat": 45.8169953,
      "lon": 15.8727155,
      "dist": 916,
      "hours": []
    },
    {
      "name": "Opruge \"Jatić\"",
      "brand": null,
      "address": null,
      "city": "Zagreb",
      "lat": 45.8126864,
      "lon": 15.8788356,
      "dist": 917,
      "hours": []
    },
    {
      "name": "Zlatni čvarak",
      "brand": null,
      "address": null,
      "city": "Zagreb",
      "lat": 45.8169199,
      "lon": 15.8727213,
      "dist": 919,
      "hours": []
    },
    {
      "name": "TTU",
      "brand": null,
      "address": null,
      "city": "Zagreb",
      "lat": 45.8168449,
      "lon": 15.8727224,
      "dist": 922,
      "hours": []
    },
    {
      "name": "Kiosk+",
      "brand": null,
      "address": null,
      "city": "Zagreb",
      "lat": 45.8167331,
      "lon": 15.8727456,
      "dist": 926,
      "hours": []
    },
    {
      "name": "Pan-pek",
      "brand": "Pan-pek",
      "address": null,
      "city": "Zagreb",
      "lat": 45.8167051,
      "lon": 15.8727465,
      "dist": 927,
      "hours": []
    },
    {
      "name": "Ravlić",
      "brand": null,
      "address": null,
      "city": "Zagreb",
      "lat": 45.8166828,
      "lon": 15.8727517,
      "dist": 927,
      "hours": []
    },
    {
      "name": "Đurđica",
      "brand": null,
      "address": null,
      "city": "Zagreb",
      "lat": 45.8165628,
      "lon": 15.872754,
      "dist": 933,
      "hours": []
    },
    {
      "name": "iNovine",
      "brand": "iNovine",
      "address": null,
      "city": "Zagreb",
      "lat": 45.8164654,
      "lon": 15.8727495,
      "dist": 938,
      "hours": []
    },
    {
      "name": "Tisak",
      "brand": "Tisak",
      "address": null,
      "city": "Zagreb",
      "lat": 45.8118123,
      "lon": 15.8860503,
      "dist": 957,
      "hours": []
    },
    {
      "name": "Konzum",
      "brand": "Konzum",
      "address": null,
      "city": "Zagreb",
      "lat": 45.8155449,
      "lon": 15.8943769,
      "dist": 987,
      "hours": [
        {
          "date": "2026-06-28",
          "open": true,
          "time": "08:00-20:00"
        }
      ]
    },
    {
      "name": "Deliiicije",
      "brand": null,
      "address": "Samoborska cesta 85",
      "city": "Zagreb",
      "lat": 45.8112978,
      "lon": 15.8833586,
      "dist": 995,
      "hours": []
    },
    {
      "name": "GVA servisi",
      "brand": null,
      "address": null,
      "city": "Zagreb",
      "lat": 45.8117184,
      "lon": 15.8796259,
      "dist": 996,
      "hours": []
    },
    {
      "name": "Đani promet",
      "brand": null,
      "address": null,
      "city": "Zagreb",
      "lat": 45.8116337,
      "lon": 15.8787285,
      "dist": 1028,
      "hours": []
    },
    {
      "name": "M&I",
      "brand": null,
      "address": "Bolnička cesta 63",
      "city": "Zagreb",
      "lat": 45.8150219,
      "lon": 15.8946136,
      "dist": 1034,
      "hours": []
    },
    {
      "name": "Kiosk+",
      "brand": null,
      "address": null,
      "city": "Zagreb",
      "lat": 45.815031,
      "lon": 15.8949007,
      "dist": 1052,
      "hours": []
    },
    {
      "name": "AS-Felge",
      "brand": null,
      "address": null,
      "city": "Zagreb",
      "lat": 45.811881,
      "lon": 15.8899125,
      "dist": 1052,
      "hours": []
    },
    {
      "name": "Špehar Petar",
      "brand": null,
      "address": null,
      "city": "Zagreb",
      "lat": 45.8147764,
      "lon": 15.8724167,
      "dist": 1057,
      "hours": []
    },
    {
      "name": "Župna knjižara Ivana Pavla II",
      "brand": null,
      "address": "Stenjevec 9",
      "city": "Zagreb",
      "lat": 45.8106381,
      "lon": 15.8863084,
      "dist": 1089,
      "hours": []
    },
    {
      "name": "Deni",
      "brand": null,
      "address": null,
      "city": "Zagreb",
      "lat": 45.811535,
      "lon": 15.890579,
      "dist": 1110,
      "hours": []
    },
    {
      "name": "R1",
      "brand": null,
      "address": "Stenjevečka ulica 8e",
      "city": "Zagreb",
      "lat": 45.8102622,
      "lon": 15.8861006,
      "dist": 1127,
      "hours": []
    },
    {
      "name": "topstart",
      "brand": null,
      "address": null,
      "city": "Zagreb",
      "lat": 45.8118326,
      "lon": 15.8917754,
      "dist": 1131,
      "hours": []
    },
    {
      "name": "Mi-Sport",
      "brand": null,
      "address": "Sigetje 22",
      "city": "Zagreb",
      "lat": 45.8144311,
      "lon": 15.8710895,
      "dist": 1164,
      "hours": []
    },
    {
      "name": "TTL",
      "brand": null,
      "address": "Ulica Zlatka Šulentića 8",
      "city": "Zagreb",
      "lat": 45.8106514,
      "lon": 15.8901833,
      "dist": 1183,
      "hours": []
    },
    {
      "name": "Alati Milić",
      "brand": null,
      "address": "Ulica Mirka Viriusa 2",
      "city": "Zagreb",
      "lat": 45.8103343,
      "lon": 15.8894401,
      "dist": 1192,
      "hours": []
    },
    {
      "name": "Diskont Stanić",
      "brand": null,
      "address": null,
      "city": "Zagreb",
      "lat": 45.8110529,
      "lon": 15.8756465,
      "dist": 1192,
      "hours": []
    },
    {
      "name": "Plus Market",
      "brand": null,
      "address": null,
      "city": "Zagreb",
      "lat": 45.8253444,
      "lon": 15.8699444,
      "dist": 1199,
      "hours": []
    },
    {
      "name": "Studenac",
      "brand": "Studenac",
      "address": "Samoborska cesta 28",
      "city": "Zagreb",
      "lat": 45.8117986,
      "lon": 15.8932887,
      "dist": 1204,
      "hours": [
        {
          "date": "2026-06-28",
          "open": true,
          "time": "07:00-21:00"
        }
      ]
    },
    {
      "name": "Damir Moto Centar",
      "brand": null,
      "address": "Samoborska cesta 91a",
      "city": "Zagreb",
      "lat": 45.8109439,
      "lon": 15.8754207,
      "dist": 1212,
      "hours": []
    },
    {
      "name": "AKS",
      "brand": null,
      "address": null,
      "city": "Zagreb",
      "lat": 45.8143495,
      "lon": 15.870086,
      "dist": 1234,
      "hours": []
    },
    {
      "name": "Konzum",
      "brand": "Konzum",
      "address": "Huzjanova ulica 2",
      "city": "Zagreb",
      "lat": 45.8157213,
      "lon": 15.8684522,
      "dist": 1275,
      "hours": [
        {
          "date": "2026-06-28",
          "open": true,
          "time": "08:00-15:00"
        }
      ]
    },
    {
      "name": "Tisak",
      "brand": "Tisak",
      "address": null,
      "city": "Zagreb",
      "lat": 45.8160514,
      "lon": 15.8990732,
      "dist": 1288,
      "hours": []
    },
    {
      "name": "ma-lu",
      "brand": null,
      "address": null,
      "city": "Zagreb",
      "lat": 45.8111303,
      "lon": 15.8958262,
      "dist": 1389,
      "hours": []
    },
    {
      "name": "Khao Sun",
      "brand": null,
      "address": null,
      "city": "Zagreb",
      "lat": 45.8109921,
      "lon": 15.8957703,
      "dist": 1397,
      "hours": []
    },
    {
      "name": "Lidl",
      "brand": "Lidl",
      "address": "Huzjanova ulica 4",
      "city": "Zagreb",
      "lat": 45.8151176,
      "lon": 15.8668211,
      "dist": 1418,
      "hours": [
        {
          "date": "2026-06-28",
          "open": true,
          "time": "08:00-21:00"
        }
      ]
    },
    {
      "name": "Felix",
      "brand": null,
      "address": null,
      "city": "Zagreb",
      "lat": 45.8106265,
      "lon": 15.8959342,
      "dist": 1436,
      "hours": []
    },
    {
      "name": "Orion reklame",
      "brand": null,
      "address": null,
      "city": "Zagreb",
      "lat": 45.8104205,
      "lon": 15.8960769,
      "dist": 1460,
      "hours": []
    },
    {
      "name": "Suzuki Antares",
      "brand": "Suzuki",
      "address": null,
      "city": "Zagreb",
      "lat": 45.8129517,
      "lon": 15.8676204,
      "dist": 1479,
      "hours": []
    },
    {
      "name": "Domaća priča",
      "brand": null,
      "address": null,
      "city": "Zagreb",
      "lat": 45.808347,
      "lon": 15.8922628,
      "dist": 1484,
      "hours": []
    },
    {
      "name": "Mirnovec pirotehnika",
      "brand": null,
      "address": null,
      "city": "Zagreb",
      "lat": 45.8083027,
      "lon": 15.8923372,
      "dist": 1491,
      "hours": []
    },
    {
      "name": "GuTel",
      "brand": null,
      "address": null,
      "city": "Zagreb",
      "lat": 45.8082638,
      "lon": 15.8924923,
      "dist": 1501,
      "hours": []
    }
  ]
}